,City,Lat,Humidity,Wind_Speed,Temp_Max,Cloudiness,Date,Lng,Country
0,praya,14.92,73.0,18.34,73.4,20.0,1589235841,-23.51,CV
1,namibe,-15.2,47.0,9.01,78.62,83.0,1589235841,12.15,AO
2,bluff,-46.6,76.0,11.5,49.91,46.0,1589235841,168.33,NZ
3,kapaa,22.08,78.0,19.46,78.8,75.0,1589235841,-159.32,US
4,veraval,20.9,84.0,10.0,80.74,0.0,1589235792,70.37,IN
5,bonavista,48.65,75.0,18.95,38.7,82.0,1589235841,-53.11,CA
6,lorengau,-2.02,70.0,4.09,85.05,97.0,1589235842,147.27,PG
7,campbell river,50.02,40.0,5.82,69.8,75.0,1589235842,-125.24,CA
8,georgiyevka,43.04,76.0,6.71,57.2,44.0,1589235842,74.71,KZ
9,nara,34.69,63.0,3.36,66.2,75.0,1589235842,135.8,JP
10,iqaluit,63.75,69.0,16.11,39.2,75.0,1589235605,-68.51,CA
11,cherskiy,68.75,68.0,24.23,39.79,81.0,1589235550,161.3,RU
12,upernavik,72.79,92.0,10.8,28.6,100.0,1589235843,-56.15,GL
13,bredasdorp,-34.53,82.0,3.67,62.6,100.0,1589235843,20.04,ZA
14,yeppoon,-23.13,63.0,8.05,64.4,5.0,1589235843,150.73,AU
15,tasiilaq,65.61,74.0,13.87,30.2,99.0,1589235843,-37.64,GL
16,beloha,-25.17,92.0,6.93,63.1,6.0,1589235843,45.05,MG
17,sao filipe,14.9,74.0,11.5,73.63,0.0,1589235843,-24.5,CV
18,new norfolk,-42.78,78.0,1.01,55.99,55.0,1589235844,147.06,AU
19,cape town,-33.93,87.0,4.0,62.01,93.0,1589235793,18.42,ZA
20,hobart,-42.88,71.0,10.29,55.99,40.0,1589235812,147.33,AU
21,tuatapere,-46.13,83.0,3.91,46.89,16.0,1589235844,167.68,NZ
22,luderitz,-26.65,63.0,9.17,66.2,0.0,1589235844,15.16,NA
23,rikitea,-23.12,66.0,6.71,74.12,49.0,1589235547,-134.97,PF
24,hobyo,5.35,79.0,16.17,84.58,28.0,1589235845,48.53,SO
25,taolanaro,,,,,,,,
26,nantucket,41.28,93.0,12.75,53.01,75.0,1589235845,-70.1,US
27,talnakh,69.49,100.0,8.95,30.2,75.0,1589235845,88.4,RU
28,sioux lookout,50.1,26.0,18.34,42.8,75.0,1589235594,-91.92,CA
29,hebi,35.9,23.0,11.95,69.24,0.0,1589235845,114.19,CN
30,mataura,-46.19,85.0,1.28,45.54,100.0,1589235846,168.86,NZ
31,punta arenas,-53.15,86.0,12.75,39.2,20.0,1589235846,-70.92,CL
32,atuona,-9.8,75.0,17.13,81.03,15.0,1589235846,-139.03,PF
33,avarua,-21.21,83.0,8.05,82.4,0.0,1589235783,-159.78,CK
34,isangel,-19.55,69.0,3.36,78.8,20.0,1589235846,169.27,VU
35,barentsburg,,,,,,,,
36,ribeira grande,38.52,79.0,15.97,61.77,100.0,1589235847,-28.7,PT
37,severo-kurilsk,50.68,84.0,13.89,36.37,59.0,1589235847,156.12,RU
38,ushtobe,45.25,51.0,5.12,65.21,77.0,1589235847,77.98,KZ
39,port alfred,-33.59,88.0,3.0,63.0,97.0,1589235847,26.89,ZA
40,saldanha,-33.01,82.0,8.05,60.8,62.0,1589235742,17.94,ZA
41,port lincoln,-34.73,57.0,15.57,55.63,100.0,1589235774,135.87,AU
42,vaini,-21.2,61.0,8.05,80.6,20.0,1589235848,-175.2,TO
43,qaanaaq,77.48,81.0,3.31,12.6,0.0,1589235848,-69.36,GL
44,ushuaia,-54.8,75.0,23.04,41.0,75.0,1589235848,-68.3,AR
45,tuktoyaktuk,69.45,92.0,11.41,28.4,90.0,1589235848,-133.04,CA
46,illoqqortoormiut,,,,,,,,
47,saint-philippe,-21.36,60.0,6.93,68.0,75.0,1589235849,55.77,RE
48,shubarshi,48.59,86.0,7.02,47.95,0.0,1589235849,57.19,KZ
49,hilo,19.73,78.0,9.17,75.2,90.0,1589235849,-155.09,US
50,airai,-8.93,100.0,3.27,58.12,100.0,1589235849,125.41,TL
51,mashhad,36.3,100.0,16.11,57.2,40.0,1589235849,59.61,IR
52,mackay,-21.15,82.0,12.75,68.0,75.0,1589235659,149.2,AU
53,victor harbor,-35.57,69.0,5.99,55.0,100.0,1589235849,138.62,AU
54,hithadhoo,-0.6,75.0,14.18,85.55,100.0,1589235850,73.08,MV
55,albany,42.6,69.0,12.84,48.99,99.0,1589235850,-73.97,US
56,lavrentiya,65.58,92.0,3.8,37.58,0.0,1589235850,-171.0,RU
57,arona,28.1,73.0,3.36,71.01,75.0,1589235850,-16.68,ES
58,winnemucca,40.97,8.0,17.22,80.6,1.0,1589235850,-117.74,US
59,hervey bay,-25.3,74.0,7.0,62.01,60.0,1589235851,152.85,AU
60,naze,28.37,88.0,1.12,71.6,75.0,1589235851,129.48,JP
61,tonstad,58.66,86.0,17.16,39.99,31.0,1589235851,6.72,NO
62,samusu,,,,,,,,
63,teknaf,20.86,84.0,2.89,78.13,15.0,1589235851,92.31,BD
64,nouadhibou,20.93,77.0,18.34,68.0,0.0,1589235851,-17.03,MR
65,busselton,-33.65,81.0,9.37,48.99,7.0,1589235852,115.33,AU
66,port elizabeth,-33.92,87.0,9.17,60.8,20.0,1589235852,25.57,ZA
67,ipixuna,-1.76,100.0,5.82,75.2,75.0,1589235852,-48.8,BR
68,milingimbi,,,,,,,,
69,kuche,,,,,,,,
70,carnarvon,-24.87,65.0,13.38,69.19,0.0,1589235852,113.63,AU
71,butaritari,3.07,77.0,11.95,83.57,31.0,1589235602,172.79,KI
72,lasa,46.62,100.0,5.82,46.99,75.0,1589235853,10.7,IT
73,kenai,60.55,93.0,13.87,44.6,90.0,1589235853,-151.26,US
74,cabo san lucas,22.89,19.0,19.46,87.8,20.0,1589235702,-109.91,MX
75,lata,40.16,90.0,2.82,61.0,67.0,1589235853,-8.33,PT
76,provideniya,64.38,80.0,4.47,41.0,40.0,1589235853,-173.3,RU
77,castro,-24.79,86.0,4.25,59.72,2.0,1589235834,-50.01,BR
78,khatanga,71.97,96.0,7.16,20.75,0.0,1589235845,102.5,RU
79,cap malheureux,-19.98,67.0,1.99,68.0,99.0,1589235854,57.61,MU
80,khandbari,27.37,51.0,3.53,66.79,50.0,1589235854,87.2,NP
81,privolzhye,52.86,79.0,4.45,50.97,7.0,1589235854,48.6,RU
82,port hardy,50.7,49.0,11.41,68.0,75.0,1589235854,-127.42,CA
83,petropavlovka,50.61,49.0,3.65,50.23,78.0,1589235855,105.32,RU
84,atambua,-9.11,87.0,5.21,71.4,93.0,1589235855,124.89,ID
85,vacaria,-28.51,52.0,2.37,70.0,84.0,1589235855,-50.93,BR
86,benfleet,51.56,80.0,5.82,43.0,7.0,1589235855,0.56,GB
87,sayanskiy,,,,,,,,
88,thompson,55.74,21.0,12.75,39.2,5.0,1589235855,-97.86,CA
89,shimoda,34.67,84.0,3.67,70.0,3.0,1589235856,138.95,JP
90,san cristobal,7.77,49.0,9.17,93.2,20.0,1589235856,-72.22,VE
91,teguldet,57.31,64.0,1.95,57.4,43.0,1589235856,88.17,RU
92,lebu,-37.62,80.0,12.28,54.12,0.0,1589235856,-73.65,CL
93,kenora,49.82,22.0,12.75,42.8,20.0,1589235722,-94.43,CA
94,samarai,-10.62,78.0,14.12,80.04,15.0,1589235856,150.67,PG
95,rawson,-43.3,40.0,11.27,56.34,0.0,1589235857,-65.1,AR
96,vila velha,-20.33,83.0,2.24,72.0,12.0,1589235857,-40.29,BR
97,puerto escondido,15.85,70.0,13.87,86.0,75.0,1589235857,-97.07,MX
98,georgetown,5.41,94.0,5.82,78.8,40.0,1589235602,100.34,MY
99,salto,-31.38,56.0,9.17,68.0,40.0,1589235857,-57.97,UY
100,belushya guba,,,,,,,,
101,sur,22.57,64.0,10.67,84.83,0.0,1589235858,59.53,OM
102,merritt island,28.54,36.0,10.29,79.0,1.0,1589235858,-80.67,US
103,egvekinot,66.32,100.0,3.87,33.22,91.0,1589235858,-179.17,RU
104,yellowknife,62.46,42.0,16.11,48.2,75.0,1589235858,-114.35,CA
105,pisco,-13.7,68.0,16.11,71.6,84.0,1589235858,-76.22,PE
106,lar,26.2,37.0,3.91,82.33,84.0,1589235858,83.97,IN
107,katsuura,35.13,100.0,2.24,68.0,75.0,1589235859,140.3,JP
108,dingle,11.0,85.0,5.35,79.48,97.0,1589235859,122.67,PH
109,karratha,-20.74,36.0,8.39,72.03,0.0,1589235859,116.85,AU
110,tiksi,71.69,98.0,8.66,28.11,100.0,1589235859,128.87,RU
111,san rafael,-34.62,39.0,7.16,55.33,37.0,1589235699,-68.33,AR
112,illintsi,49.1,68.0,15.3,57.74,71.0,1589235859,29.22,UA
113,kisangani,0.52,90.0,1.83,73.26,99.0,1589235860,25.2,CD
114,uglich,57.53,70.0,10.6,51.19,29.0,1589235860,38.33,RU
115,muros,42.78,82.0,1.99,60.01,22.0,1589235860,-9.06,ES
116,lima,-12.04,57.0,11.41,75.2,35.0,1589235665,-77.03,PE
117,bethel,41.37,47.0,16.11,55.99,1.0,1589235860,-73.41,US
118,norman wells,65.28,44.0,16.11,57.2,5.0,1589235860,-126.83,CA
119,vila franca do campo,37.72,72.0,1.12,59.0,20.0,1589235861,-25.43,PT
120,te anau,-45.42,84.0,1.59,44.29,82.0,1589235861,167.72,NZ
121,hermanus,-34.42,86.0,9.42,60.01,96.0,1589235861,19.23,ZA
122,nome,64.5,61.0,11.41,54.0,1.0,1589235861,-165.41,US
123,nguiu,,,,,,,,
124,victoria,22.29,83.0,5.82,78.01,100.0,1589235838,114.16,HK
125,meulaboh,4.14,90.0,5.82,77.11,80.0,1589235862,96.13,ID
126,hirara,24.8,94.0,10.29,77.0,75.0,1589235862,125.28,JP
127,balkanabat,39.51,51.0,4.85,64.36,17.0,1589235862,54.37,TM
128,saint-georges,12.06,74.0,16.11,84.2,20.0,1589235862,-61.75,GD
129,luba,3.46,100.0,4.7,78.8,20.0,1589235862,8.55,GQ
130,vaitupu,,,,,,,,
131,adiake,5.29,94.0,6.98,78.8,20.0,1589235605,-3.3,CI
132,laguna,38.42,23.0,13.87,77.0,40.0,1589235644,-121.42,US
133,quatre cocos,-20.21,60.0,6.93,71.6,75.0,1589235863,57.76,MU
134,codrington,-38.27,73.0,14.81,51.04,100.0,1589235803,141.97,AU
135,jamestown,42.1,94.0,16.11,39.0,90.0,1589235863,-79.24,US
136,ponta do sol,32.67,52.0,9.17,66.2,40.0,1589235863,-17.1,PT
137,bratsk,56.13,45.0,4.47,44.6,96.0,1589235864,101.61,RU
138,mar del plata,-38.0,76.0,2.24,55.99,75.0,1589235864,-57.56,AR
139,mumbwa,-14.98,74.0,4.97,58.14,2.0,1589235864,27.06,ZM
140,geraldton,-28.77,87.0,5.82,51.8,2.0,1589235864,114.6,AU
141,chokurdakh,70.63,98.0,11.01,29.17,90.0,1589235864,147.92,RU
142,snezhnogorsk,69.19,74.0,2.24,33.8,100.0,1589235864,33.25,RU
143,tarudant,,,,,,,,
144,kodiak,57.79,50.0,12.75,51.8,90.0,1589235865,-152.41,US
145,kytmanovo,53.46,66.0,3.47,62.02,100.0,1589235865,85.45,RU
146,sinkat,,,,,,,,
147,hecun,36.53,30.0,6.69,63.03,0.0,1589235865,114.11,CN
148,satana,20.58,35.0,4.05,74.07,0.0,1589235865,74.2,IN
149,emerald,-23.53,59.0,11.41,59.0,34.0,1589235866,148.17,AU
150,sentyabrskiy,,,,,,,,
151,san policarpo,12.18,80.0,5.44,82.36,25.0,1589235866,125.51,PH
152,kibaya,-5.3,100.0,3.74,57.78,87.0,1589235866,36.57,TZ
153,maracacume,-2.04,93.0,2.73,76.55,100.0,1589235866,-45.96,BR
154,ondjiva,-17.07,51.0,5.01,66.65,91.0,1589235866,15.73,AO
155,inhambane,-23.86,71.0,4.03,67.68,18.0,1589235867,35.38,MZ
156,kibre mengist,5.88,96.0,0.65,61.48,84.0,1589235867,38.98,ET
157,ahipara,-35.17,71.0,11.16,61.47,100.0,1589235867,173.17,NZ
158,bandarbeyla,9.49,79.0,6.53,82.49,72.0,1589235867,50.81,SO
159,tubuala,9.52,83.0,4.7,88.0,40.0,1589235867,-79.03,PA
160,atasu,48.68,65.0,2.55,60.42,27.0,1589235867,71.64,KZ
161,babushkin,51.71,62.0,4.03,43.7,87.0,1589235868,105.86,RU
162,nelson bay,-32.72,70.0,11.41,52.0,20.0,1589235761,152.15,AU
163,henties bay,-22.12,82.0,3.0,62.01,0.0,1589235868,14.28,NA
164,arraial do cabo,-22.97,73.0,12.75,75.2,0.0,1589235868,-42.03,BR
165,galveston,29.37,61.0,16.11,79.0,20.0,1589235868,-94.97,US
166,grand river south east,,,,,,,,
167,mayskiy,47.69,82.0,17.9,57.2,29.0,1589235869,40.1,RU
168,coihaique,-45.58,75.0,2.24,46.4,75.0,1589235861,-72.07,CL
169,hamilton,39.18,49.0,5.82,48.99,90.0,1589235630,-84.53,US
170,saint anthony,45.02,22.0,17.22,55.99,1.0,1589235869,-93.22,US
171,saint-pierre,-21.34,60.0,6.93,68.0,75.0,1589235869,55.48,RE
172,kavaratti,10.57,74.0,10.11,85.17,82.0,1589235870,72.64,IN
173,la ronge,55.1,22.0,11.41,42.8,40.0,1589235870,-105.28,CA
174,phan rang,,,,,,,,
175,mahebourg,-20.41,60.0,6.93,71.6,75.0,1589235870,57.7,MU
176,pangody,65.85,97.0,14.61,32.14,100.0,1589235870,74.49,RU
177,cabedelo,-6.98,88.0,5.82,77.0,20.0,1589235870,-34.83,BR
178,baniachang,24.52,58.0,1.57,80.37,63.0,1589235871,91.37,BD
179,hay river,60.82,22.0,14.99,59.0,75.0,1589235871,-115.8,CA
180,urumqi,43.8,8.0,20.13,75.2,100.0,1589235871,87.6,CN
181,ca mau,9.18,79.0,2.1,80.64,99.0,1589235871,105.15,VN
182,saint-augustin,51.23,72.0,18.05,42.21,49.0,1589235871,-58.65,CA
183,chuy,-33.7,70.0,6.64,56.41,21.0,1589235871,-53.46,UY
184,mahajanga,-15.72,69.0,8.59,77.0,20.0,1589235872,46.32,MG
185,lompoc,34.64,63.0,10.29,68.0,1.0,1589235872,-120.46,US
186,yumen,40.28,38.0,5.5,47.53,56.0,1589235872,97.2,CN
187,belyy yar,53.6,81.0,3.49,48.2,43.0,1589235872,91.39,RU
188,nyurba,63.28,90.0,7.58,30.94,99.0,1589235872,118.33,RU
189,strezhevoy,60.73,81.0,6.71,53.6,64.0,1589235872,77.59,RU
190,san jose,37.34,30.0,18.34,73.99,75.0,1589235616,-121.89,US
191,jalu,29.03,15.0,10.36,79.0,0.0,1589235873,21.55,LY
192,kingsville,27.52,51.0,18.34,86.0,75.0,1589235613,-97.86,US
193,barrow,71.29,92.0,20.8,28.4,90.0,1589235873,-156.79,US
194,saint-francois,46.42,75.0,5.82,44.6,90.0,1589235873,3.91,FR
195,nikolskoye,59.7,86.0,15.66,37.99,90.0,1589235873,30.79,RU
196,narsaq,60.92,29.0,42.5,50.0,100.0,1589235874,-46.05,GL
197,pontianak,-0.03,94.0,2.35,78.8,40.0,1589235874,109.33,ID
198,riyadh,24.69,36.0,2.24,78.8,74.0,1589235874,46.72,SA
199,ilo,-17.64,76.0,3.22,65.25,12.0,1589235874,-71.34,PE
200,ust-kuyga,70.02,97.0,4.43,30.81,99.0,1589235874,135.6,RU
201,nikel,69.41,95.0,41.38,32.0,75.0,1589235874,30.22,RU
202,hoopstad,-27.83,37.0,3.89,58.84,0.0,1589235875,25.91,ZA
203,marana,32.44,8.0,10.29,98.01,1.0,1589235659,-111.23,US
204,bathsheba,13.22,69.0,23.04,82.4,40.0,1589235875,-59.52,BB
205,longyearbyen,78.22,67.0,2.24,19.4,40.0,1589235875,15.64,SJ
206,alofi,-19.06,83.0,5.82,82.4,75.0,1589235875,-169.92,NU
207,torbay,47.67,56.0,24.16,44.01,20.0,1589235875,-52.73,CA
208,dolbeau,,,,,,,,
209,washington,47.5,32.0,8.03,73.0,1.0,1589235603,-120.5,US
210,bubaque,11.28,79.0,13.94,77.99,90.0,1589235876,-15.83,GW
211,leningradskiy,69.38,95.0,6.46,34.77,14.0,1589235876,178.42,RU
212,trairi,-3.28,80.0,8.9,79.45,0.0,1589235876,-39.27,BR
213,rio gallegos,-51.62,87.0,10.29,42.8,75.0,1589235876,-69.22,AR
214,lolua,,,,,,,,
215,altamira,-3.2,79.0,3.36,84.2,40.0,1589235877,-52.21,BR
216,lensk,60.73,90.0,4.0,32.54,1.0,1589235877,114.93,RU
217,maibong,25.3,85.0,2.8,68.63,91.0,1589235877,93.17,IN
218,faya,18.39,68.0,5.91,68.0,0.0,1589235877,42.45,SA
219,pacific grove,36.62,33.0,6.93,75.2,1.0,1589235730,-121.92,US
220,coos bay,43.37,59.0,14.99,73.99,90.0,1589235878,-124.22,US
221,noumea,-22.28,73.0,2.24,73.99,20.0,1589235878,166.46,NC
222,puerto ayora,-0.74,78.0,14.99,80.6,40.0,1589235878,-90.35,EC
223,san quintin,30.48,65.0,15.68,68.09,0.0,1589235878,-115.95,MX
224,aden,12.78,56.0,3.65,88.77,0.0,1589235878,45.04,YE
225,axim,4.87,83.0,6.42,78.84,100.0,1589235879,-2.24,GH
226,bilma,18.69,12.0,4.03,82.69,0.0,1589235879,12.92,NE
227,leua,48.22,52.0,13.87,64.4,12.0,1589235879,18.61,SK
228,ust-ishim,57.69,64.0,2.46,62.04,89.0,1589235665,71.17,RU
229,dikson,73.51,99.0,1.88,25.25,68.0,1589235879,80.55,RU
230,kysyl-syr,63.9,94.0,9.01,28.6,97.0,1589235879,122.76,RU
231,fort nelson,58.81,21.0,5.82,62.6,20.0,1589235880,-122.7,CA
232,amderma,,,,,,,,
233,kwekwe,-18.93,68.0,5.68,53.02,96.0,1589235880,29.81,ZW
234,port-gentil,-0.72,94.0,3.36,80.6,20.0,1589235880,8.78,GA
235,kondinskoye,59.65,73.0,2.35,61.77,100.0,1589235880,67.41,RU
236,bambous virieux,-20.34,60.0,6.93,71.6,75.0,1589235880,57.76,MU
237,flinders,-34.58,86.0,4.0,51.01,10.0,1589235682,150.86,AU
238,sarab,38.61,63.0,1.1,52.25,3.0,1589235881,44.99,IR
239,odweyne,9.41,58.0,3.49,78.15,83.0,1589235881,45.06,SO
240,fairbanks,64.84,26.0,8.05,78.01,1.0,1589235764,-147.72,US
241,guerrero negro,27.98,54.0,16.64,71.96,4.0,1589235881,-114.06,MX
242,kastamonu,41.5,63.0,0.31,51.67,22.0,1589235611,33.67,TR
243,uttarkashi,30.73,36.0,6.73,60.85,29.0,1589235882,78.45,IN
244,baoying,33.23,58.0,10.71,59.47,0.0,1589235882,119.31,CN
245,kaitangata,-46.28,76.0,4.0,52.0,100.0,1589235882,169.85,NZ
246,malayal,7.21,94.0,1.12,77.0,75.0,1589235882,121.94,PH
247,port hedland,-20.32,42.0,5.82,66.2,0.0,1589235882,118.57,AU
248,sargur,11.98,83.0,1.63,72.81,98.0,1589235882,76.42,IN
249,walvis bay,-22.96,82.0,3.0,62.01,0.0,1589235883,14.51,NA
250,labuhan,-6.88,89.0,7.38,78.24,90.0,1589235883,112.21,ID
251,otjimbingwe,-22.35,34.0,6.89,67.42,17.0,1589235883,16.13,NA
252,bagotville,-28.98,72.0,10.29,59.0,75.0,1589235883,153.42,AU
253,portland,45.52,30.0,10.29,68.0,75.0,1589235862,-122.68,US
254,kawalu,-7.38,92.0,0.85,73.44,99.0,1589235883,108.21,ID
255,baixa grande,-11.96,88.0,6.4,70.11,46.0,1589235884,-40.17,BR
256,kamenskoye,,,,,,,,
257,huangzhai,38.08,57.0,2.24,50.0,0.0,1589235884,112.66,CN
258,ati,13.22,26.0,5.19,89.89,30.0,1589235884,18.34,TD
259,verin,41.94,72.0,2.33,53.01,95.0,1589235884,-7.44,ES
260,launceston,-41.45,87.0,17.22,53.6,90.0,1589235880,147.17,AU
261,ongole,15.5,86.0,8.28,80.04,100.0,1589235885,80.05,IN
262,faanui,-16.48,79.0,11.63,81.57,2.0,1589235885,-151.75,PF
263,sitka,57.05,51.0,4.7,60.8,20.0,1589235885,-135.33,US
264,kapchorwa,1.4,93.0,2.28,58.55,100.0,1589235885,34.45,UG
265,kushiro,42.98,100.0,1.12,50.0,75.0,1589235885,144.37,JP
266,maniitsoq,65.42,87.0,2.59,40.84,100.0,1589235885,-52.9,GL
267,tsihombe,,,,,,,,
268,esso,55.93,90.0,0.78,32.85,14.0,1589235886,158.7,RU
269,castelo do piaui,-5.32,86.0,3.04,75.67,76.0,1589235886,-41.55,BR
270,quelimane,-17.88,88.0,3.36,68.0,20.0,1589235886,36.89,MZ
271,tessalit,20.2,12.0,3.15,84.4,5.0,1589235886,1.01,ML
272,hasaki,35.73,88.0,4.7,68.0,75.0,1589235887,140.83,JP
273,pervomayskoye,43.92,69.0,7.94,54.97,2.0,1589235887,46.71,RU
274,ulaangom,49.98,38.0,0.65,53.78,95.0,1589235887,92.07,MN
275,fortuna,40.6,67.0,19.46,66.0,75.0,1589235887,-124.16,US
276,cidreira,-30.18,80.0,8.28,70.29,76.0,1589235887,-50.21,BR
277,frutigen,46.59,67.0,15.01,44.01,100.0,1589235887,7.65,CH
278,borogontsy,62.67,94.0,5.73,32.79,100.0,1589235888,131.17,RU
279,kuytun,54.34,52.0,2.42,49.1,87.0,1589235888,101.5,RU
280,porto novo,6.5,78.0,9.17,82.4,40.0,1589235888,2.6,BJ
281,tutoia,-2.76,86.0,7.11,80.08,38.0,1589235888,-42.27,BR
282,attawapiskat,,,,,,,,
283,nouakchott,18.09,69.0,18.34,75.2,0.0,1589235821,-15.98,MR
284,olafsvik,64.89,79.0,5.14,39.6,46.0,1589235889,-23.71,IS
285,imeni poliny osipenko,52.42,78.0,6.04,46.63,95.0,1589235889,136.49,RU
286,finote selam,10.7,54.0,3.44,66.56,3.0,1589235889,37.27,ET
287,manta,-0.95,70.0,10.29,84.2,40.0,1589235889,-80.73,EC
288,yasnyy,51.03,93.0,14.65,56.73,92.0,1589235889,59.87,RU
289,arkhara,49.42,72.0,6.8,44.29,100.0,1589235889,130.08,RU
290,pangnirtung,66.15,52.0,36.91,46.4,75.0,1589235890,-65.71,CA
291,moscow,55.75,50.0,4.47,60.8,0.0,1589235708,37.62,RU
292,moose factory,51.26,46.0,13.87,28.4,20.0,1589235890,-80.61,CA
293,pevek,69.7,84.0,9.8,35.91,0.0,1589235890,170.31,RU
294,buhovo,42.77,60.0,10.29,68.0,86.0,1589235890,23.57,BG
295,aklavik,68.22,80.0,11.41,33.8,75.0,1589235890,-135.01,CA
296,mana,5.66,85.0,13.06,78.53,89.0,1589235891,-53.78,GF
297,palmer,42.16,66.0,10.29,53.6,75.0,1589235891,-72.33,US
298,cayenne,4.93,100.0,13.78,75.2,75.0,1589235891,-52.33,GF
299,rivera,-30.91,84.0,5.57,65.55,81.0,1589235891,-55.55,UY
300,baculin,7.45,80.0,3.91,79.86,99.0,1589235891,126.58,PH
301,tanout,14.97,12.0,8.25,86.13,0.0,1589235892,8.89,NE
302,kiunga,-6.12,98.0,1.28,75.2,100.0,1589235892,141.29,PG
303,yuanping,38.72,39.0,4.23,55.72,0.0,1589235892,112.76,CN
304,bur gabo,,,,,,,,
305,nueva loja,0.08,78.0,2.24,80.6,75.0,1589235892,-76.88,EC
306,salalah,17.02,83.0,3.36,84.2,0.0,1589235892,54.09,OM
307,nanortalik,60.14,66.0,19.66,45.88,100.0,1589235893,-45.24,GL
308,teguise,29.06,68.0,12.75,68.0,20.0,1589235893,-13.56,ES
309,mys shmidta,,,,,,,,
310,northam,51.03,62.0,5.99,46.99,0.0,1589235893,-4.22,GB
311,hofn,64.25,85.0,18.63,35.67,97.0,1589235893,-15.21,IS
312,padang,-0.95,70.0,4.36,78.96,100.0,1589235893,100.35,ID
313,trelew,-43.25,39.0,11.61,55.62,0.0,1589235841,-65.31,AR
314,buritis,-15.62,76.0,3.53,68.36,6.0,1589235894,-46.42,BR
315,saint george,37.1,13.0,29.97,90.0,1.0,1589235894,-113.58,US
316,sturgeon falls,46.36,30.0,8.05,42.01,20.0,1589235894,-79.93,CA
317,east london,-33.02,82.0,11.48,65.48,42.0,1589235894,27.91,ZA
318,burns lake,54.23,28.0,5.55,62.51,0.0,1589235894,-125.75,CA
319,glendive,47.11,29.0,8.05,52.0,20.0,1589235833,-104.71,US
320,yerbogachen,61.28,86.0,5.06,35.6,94.0,1589235895,108.01,RU
321,hambantota,6.12,80.0,4.99,80.8,99.0,1589235895,81.12,LK
322,os,,,,,,,,
323,grand-lahou,5.14,83.0,7.7,77.68,100.0,1589235895,-5.02,CI
324,maldonado,-34.67,76.0,5.82,57.0,84.0,1589235895,-54.92,UY
325,lebork,54.54,79.0,5.82,39.99,40.0,1589235896,17.75,PL
326,murdochville,48.96,71.0,7.11,39.51,60.0,1589235896,-65.5,CA
327,tete,-16.16,72.0,3.71,62.6,0.0,1589235896,33.59,MZ
328,nakamura,32.98,69.0,2.44,66.87,59.0,1589235896,132.93,JP
329,chiang khong,20.26,64.0,0.29,70.0,68.0,1589235896,100.4,TH
330,san patricio,19.22,74.0,11.41,82.4,5.0,1589235896,-104.7,MX
331,cape canaveral,28.41,50.0,14.99,79.0,1.0,1589235715,-80.6,US
332,maxixe,-23.86,74.0,3.42,66.42,20.0,1589235897,35.35,MZ
333,lagoa,39.05,79.0,18.45,61.16,100.0,1589235897,-27.98,PT
334,brae,60.4,71.0,16.11,41.0,100.0,1589235897,-1.35,GB
335,ciudad bolivar,8.12,43.0,13.24,92.23,82.0,1589235810,-63.55,VE
336,high level,58.52,22.0,8.05,57.2,20.0,1589235897,-117.14,CA
337,roma,43.21,70.0,14.99,42.8,90.0,1589235898,-75.46,US
338,mount isa,-20.73,35.0,2.24,55.4,0.0,1589235716,139.5,AU
339,goderich,43.75,68.0,11.36,42.01,56.0,1589235898,-81.72,CA
340,bengkulu,-3.8,85.0,4.29,75.9,62.0,1589235898,102.27,ID
341,saint-leu,-21.15,60.0,6.93,68.0,75.0,1589235898,55.28,RE
342,bamora,24.06,26.0,4.94,86.74,10.0,1589235899,78.09,IN
343,xianyang,34.34,70.0,6.71,60.01,0.0,1589235899,108.7,CN
344,knesselare,51.13,66.0,4.0,45.0,0.0,1589235899,3.46,BE
345,zheleznodorozhnyy,55.75,70.0,6.71,59.0,0.0,1589235899,38.0,RU
346,havelock,34.88,19.0,18.34,72.0,1.0,1589235823,-76.9,US
347,north myrtle beach,33.82,23.0,10.29,73.4,1.0,1589235812,-78.68,US
348,sao raimundo das mangabeiras,-7.02,74.0,4.07,78.17,12.0,1589235780,-45.48,BR
349,othaya,-0.57,94.0,1.86,57.0,99.0,1589235900,36.96,KE
350,souillac,-20.52,60.0,6.93,71.6,75.0,1589235900,57.52,MU
351,grimari,,,,,,,,
352,umm lajj,25.02,47.0,8.66,77.94,1.0,1589235900,37.27,SA
353,deputatskiy,69.3,99.0,3.29,27.55,100.0,1589235900,139.9,RU
354,penzance,50.12,69.0,9.17,51.01,72.0,1589235901,-5.54,GB
355,port augusta,-32.5,70.0,8.05,45.0,65.0,1589235901,137.77,AU
356,pangoa,-12.12,82.0,1.52,77.7,63.0,1589235901,-73.0,PE
357,poum,-20.23,69.0,17.45,75.45,50.0,1589235901,164.02,NC
358,izazi,-7.2,72.0,6.93,66.2,0.0,1589235901,35.73,TZ
359,chabahar,25.29,83.0,8.14,83.12,3.0,1589235902,60.64,IR
360,gornopravdinsk,60.05,77.0,3.06,61.48,98.0,1589235723,69.9,RU
361,namatanai,-3.67,82.0,7.49,82.72,99.0,1589235902,152.43,PG
362,taoudenni,22.68,13.0,10.58,95.49,46.0,1589235902,-3.98,ML
363,la macarena,2.18,90.0,1.36,80.04,97.0,1589235902,-73.78,CO
364,tigil,57.8,67.0,6.89,41.47,0.0,1589235902,158.67,RU
365,tumannyy,,,,,,,,
366,ginir,7.13,93.0,3.02,58.98,42.0,1589235903,40.7,ET
367,auki,-8.77,78.0,7.49,82.58,85.0,1589235903,160.7,SB
368,sao joao da barra,-21.64,78.0,8.05,73.4,0.0,1589235903,-41.05,BR
369,sahuaripa,29.05,10.0,16.37,93.9,81.0,1589235903,-109.23,MX
370,shumskiy,54.83,71.0,2.28,52.77,89.0,1589235665,99.13,RU
371,palu,-0.89,81.0,2.57,76.42,68.0,1589235904,119.87,ID
372,skjervoy,70.03,81.0,26.62,36.0,100.0,1589235904,20.97,NO
373,road town,18.42,62.0,11.41,84.2,20.0,1589235904,-64.62,VG
374,barber,12.28,66.0,20.8,84.2,20.0,1589235904,-69.07,CW
375,kushima,31.46,64.0,21.92,68.0,75.0,1589235904,131.23,JP
376,gijon,43.54,88.0,3.0,57.99,98.0,1589235905,-5.66,ES
377,san rafael del sur,11.85,59.0,7.49,87.26,97.0,1589235905,-86.44,NI
378,pimentel,-6.84,81.0,16.15,70.18,90.0,1589235905,-79.93,PE
379,zastron,-30.3,51.0,1.45,47.95,0.0,1589235905,27.08,ZA
380,cedral,23.8,36.0,14.18,77.61,20.0,1589235905,-100.73,MX
381,sines,37.96,89.0,1.99,60.01,96.0,1589235826,-8.87,PT
382,beringovskiy,63.05,99.0,6.44,31.1,100.0,1589235906,179.32,RU
383,ostrovnoy,68.05,80.0,17.98,41.07,100.0,1589235906,39.51,RU
384,lander,42.83,50.0,6.42,55.0,90.0,1589235906,-108.73,US
385,saskylakh,71.92,97.0,11.54,20.44,98.0,1589235906,114.08,RU
386,alice springs,-23.7,43.0,5.82,50.0,100.0,1589235906,133.88,AU
387,zalantun,48.0,60.0,10.85,43.02,0.0,1589235906,122.72,CN
388,grand gaube,-20.01,67.0,1.99,68.0,100.0,1589235907,57.66,MU
389,roald,62.58,97.0,16.11,36.0,75.0,1589235907,6.13,NO
390,nizhneyansk,,,,,,,,
391,vejle,55.71,74.0,8.05,39.2,0.0,1589235907,9.54,DK
392,thunder bay,48.4,17.0,14.99,48.0,20.0,1589235905,-89.32,CA
393,alta floresta,-9.88,74.0,5.82,84.2,75.0,1589235864,-56.09,BR
394,brigham city,41.51,11.0,18.34,82.4,1.0,1589235808,-112.02,US
395,mikhaylovka,50.06,90.0,4.03,49.95,0.0,1589235908,43.24,RU
396,kavieng,-2.57,72.0,3.65,84.81,99.0,1589235908,150.8,PG
397,uyskoye,54.38,91.0,5.95,58.84,100.0,1589235908,60.0,RU
398,saleaula,,,,,,,,
399,avera,33.19,35.0,12.75,71.6,1.0,1589235908,-82.53,US
400,wajid,3.81,78.0,14.67,77.36,100.0,1589235909,43.25,SO
401,atherton,53.52,71.0,1.01,45.0,3.0,1589235909,-2.49,GB
402,novikovo,51.15,88.0,6.6,53.42,0.0,1589235909,37.89,RU
403,burica,,,,,,,,
404,anderson,34.53,21.0,12.75,70.0,1.0,1589235763,-82.65,US
405,nhulunbuy,-12.23,61.0,13.87,82.4,75.0,1589235910,136.77,AU
406,chimbote,-9.09,76.0,9.8,71.08,16.0,1589235654,-78.58,PE
407,patnos,39.23,71.0,0.54,38.48,0.0,1589235910,42.86,TR
408,nemuro,43.32,88.0,1.36,44.92,0.0,1589235910,145.57,JP
409,omboue,-1.57,86.0,2.91,78.03,4.0,1589235910,9.26,GA
410,tilichiki,60.47,100.0,5.53,31.17,100.0,1589235910,166.1,RU
411,broome,42.25,74.0,13.87,39.99,90.0,1589235911,-75.83,US
412,urengoy,65.97,95.0,7.56,32.83,100.0,1589235911,78.37,RU
413,kaeo,-35.1,40.0,8.01,64.0,100.0,1589235911,173.78,NZ
414,wulanhaote,,,,,,,,
415,kandrian,-6.22,86.0,11.41,80.49,97.0,1589235911,149.55,PG
416,gamba,-2.65,88.0,3.33,77.59,18.0,1589235911,10.0,GA
417,viseu,40.66,2.0,1.01,55.0,74.0,1589235710,-7.91,PT
418,qui nhon,13.77,88.0,3.87,76.1,69.0,1589235912,109.23,VN
419,buckeye,33.37,11.0,10.29,100.99,1.0,1589235912,-112.58,US
420,husavik,66.04,94.0,17.22,32.0,90.0,1589235912,-17.34,IS
421,tarauaca,-8.16,70.0,2.26,83.64,82.0,1589235714,-70.77,BR
422,vao,-22.67,73.0,17.54,73.44,23.0,1589235912,167.48,NC
423,mopti,14.67,39.0,16.11,96.8,20.0,1589235913,-4.0,ML
424,bajo baudo,,,,,,,,
425,tual,-5.67,78.0,17.63,83.1,21.0,1589235913,132.75,ID
426,aksarka,66.56,93.0,11.14,33.46,100.0,1589235913,67.8,RU
427,agadez,19.75,13.0,3.53,80.65,0.0,1589235913,10.25,NE
428,castle rock,39.37,63.0,10.38,53.01,98.0,1589235733,-104.86,US
429,terney,45.05,72.0,2.06,48.27,7.0,1589235914,136.61,RU
430,ucluelet,48.93,93.0,5.82,55.99,90.0,1589235899,-125.55,CA
431,amazar,53.86,73.0,6.98,38.35,52.0,1589235914,120.88,RU
432,esperance,-33.87,93.0,4.7,55.4,75.0,1589235914,121.9,AU
433,vila,42.03,92.0,3.0,55.0,91.0,1589235914,-8.16,PT
434,juneau,58.3,37.0,4.56,63.79,24.0,1589235906,-134.42,US
435,chengde,40.97,50.0,5.3,48.29,0.0,1589235915,117.94,CN
436,tuy hoa,13.08,87.0,3.51,75.52,97.0,1589235915,109.3,VN
437,presidencia roque saenz pena,-26.79,82.0,4.34,70.93,93.0,1589235915,-60.44,AR
438,kitimat,54.05,20.0,14.99,68.0,5.0,1589235915,-128.65,CA
439,makung,,,,,,,,
440,caravelas,-17.71,68.0,4.09,71.8,0.0,1589235915,-39.25,BR
441,tucuman,-26.82,63.0,0.69,66.2,0.0,1589235916,-65.22,AR
442,chagda,,,,,,,,
443,hue,16.47,94.0,2.24,80.6,20.0,1589235916,107.6,VN
444,thinadhoo,0.53,76.0,14.94,85.6,100.0,1589235916,72.93,MV
445,xadani,,,,,,,,
446,lukovetskiy,64.3,66.0,6.71,51.8,40.0,1589235916,41.92,RU
447,erenhot,43.65,45.0,11.9,47.82,0.0,1589235917,111.98,CN
448,toropets,56.5,90.0,10.13,58.68,97.0,1589235917,31.64,RU
449,astoria,46.19,59.0,13.87,60.8,90.0,1589235917,-123.83,US
450,caribou,46.86,33.0,9.17,57.2,75.0,1589235917,-68.01,US
451,aleksandriya,45.09,79.0,8.77,51.8,0.0,1589235917,43.25,RU
452,rungata,,,,,,,,
453,bage,-31.33,82.0,9.17,66.2,72.0,1589235918,-54.11,BR
454,dwarka,22.24,88.0,12.5,80.91,74.0,1589235918,68.97,IN
455,kurayoshi,35.43,63.0,8.05,62.6,77.0,1589235844,133.82,JP
456,mayumba,-3.43,90.0,1.99,78.06,97.0,1589235918,10.66,GA
457,paradwip,,,,,,,,
458,safford,32.83,17.0,4.7,91.4,20.0,1589235919,-109.71,US
459,mae sai,20.43,100.0,3.36,71.6,20.0,1589235919,99.88,TH
460,magadan,59.57,83.0,2.37,36.46,89.0,1589235919,150.8,RU
461,abaetetuba,-1.72,100.0,5.82,75.2,75.0,1589235919,-48.88,BR
462,abu dhabi,24.47,51.0,12.75,86.0,23.0,1589235919,54.37,AE
463,cerro largo,-28.15,69.0,6.93,75.2,75.0,1589235919,-54.74,BR
464,saryshagan,,,,,,,,
465,waddan,29.16,12.0,14.63,85.62,0.0,1589235920,16.14,LY
466,monrovia,6.3,87.0,4.92,79.05,100.0,1589235920,-10.8,LR
467,jiaohe,43.73,81.0,12.44,47.16,100.0,1589235920,127.34,CN
468,saint combs,,,,,,,,
469,vestmannaeyjar,63.44,86.0,19.39,45.25,99.0,1589235920,-20.27,IS
470,tubruq,,,,,,,,
471,macaboboni,,,,,,,,
472,vestmanna,62.16,69.0,12.75,37.4,86.0,1589235921,-7.17,FO
473,ilulissat,69.22,35.0,14.99,55.4,46.0,1589235921,-51.1,GL
474,ruteng,-8.61,100.0,1.63,60.01,6.0,1589235921,120.47,ID
475,ozernovskiy,51.5,90.0,9.26,35.4,46.0,1589235921,156.52,RU
476,panjab,34.39,56.0,2.64,49.42,11.0,1589235922,67.02,AF
477,sehithwa,-20.47,34.0,5.95,60.1,0.0,1589235922,22.72,BW
478,bell ville,-32.63,39.0,5.82,59.9,0.0,1589235922,-62.69,AR
479,qom,34.64,35.0,10.02,66.43,0.0,1589235764,50.88,IR
480,czluchow,53.67,88.0,8.84,37.99,100.0,1589235922,17.36,PL
481,royan,45.63,87.0,11.41,48.2,100.0,1589235922,-1.03,FR
482,port shepstone,-30.74,59.0,10.78,69.26,0.0,1589235923,30.45,ZA
483,tshane,-24.02,36.0,7.18,60.8,0.0,1589235923,21.87,BW
484,kindia,10.06,86.0,3.42,75.78,97.0,1589235923,-12.87,GN
485,ouesso,1.61,83.0,2.28,74.57,40.0,1589235923,16.05,CG
486,praia,14.92,73.0,18.34,73.4,20.0,1589235923,-23.51,CV
487,kalmunai,7.42,84.0,4.03,80.01,94.0,1589235923,81.82,LK
488,arlit,18.74,11.0,9.91,90.46,0.0,1589235924,7.39,NE
489,qaqortoq,60.72,29.0,42.5,50.0,100.0,1589235924,-46.03,GL
490,santa isabel,-23.32,72.0,3.33,73.4,0.0,1589235924,-46.22,BR
491,mehamn,71.04,86.0,39.15,33.8,90.0,1589235924,27.85,NO
492,bonthe,7.53,84.0,5.73,81.32,100.0,1589235924,-12.51,SL
493,anadyr,64.75,94.0,17.9,37.4,40.0,1589235924,177.48,RU
494,chaah,2.25,97.0,2.46,76.1,100.0,1589235925,103.05,MY
495,atar,20.52,15.0,9.24,88.99,61.0,1589235925,-13.05,MR
496,loralai,30.37,24.0,3.69,74.44,76.0,1589235925,68.6,PK
497,oeiras,-7.03,79.0,4.27,76.17,8.0,1589235925,-42.13,BR
498,nexo,55.06,56.0,8.05,42.8,0.0,1589235925,15.13,DK
499,ternate,0.8,78.0,5.26,81.63,14.0,1589235925,127.4,ID
500,bariri,-22.07,47.0,1.12,78.8,0.0,1589235920,-48.74,BR
501,coquimbo,-29.95,82.0,8.05,57.2,38.0,1589235926,-71.34,CL
502,minab,27.15,83.0,4.7,78.8,81.0,1589235926,57.08,IR
503,seoul,37.57,93.0,8.05,53.6,40.0,1589235882,126.98,KR
504,touros,-5.2,83.0,5.82,78.8,20.0,1589235926,-35.46,BR
505,asau,46.43,65.0,4.59,62.01,100.0,1589235926,26.4,RO
506,koshurnikovo,54.17,75.0,2.19,49.14,48.0,1589235723,93.3,RU
507,sarh,9.14,55.0,8.32,87.8,20.0,1589235927,18.39,TD
508,kisesa,-3.08,87.0,6.2,62.11,13.0,1589235927,34.15,TZ
509,akyab,20.15,79.0,5.77,81.23,27.0,1589235927,92.9,MM
510,warqla,,,,,,,,
511,santa maria,-29.68,88.0,4.7,71.6,75.0,1589235927,-53.81,BR
512,aksha,50.28,65.0,4.68,38.1,0.0,1589235928,113.29,RU
513,payo,-3.75,90.0,1.86,73.94,100.0,1589235928,103.64,ID
514,vyazemskiy,47.54,66.0,8.41,52.61,91.0,1589235928,134.75,RU
515,savannah bight,16.45,83.0,16.78,81.32,66.0,1589235928,-85.85,HN
516,buzuluk,52.78,87.0,3.13,48.25,56.0,1589235928,52.26,RU
517,high rock,26.62,74.0,19.46,78.8,75.0,1589235928,-78.28,BS
518,dudinka,69.41,100.0,8.95,30.2,75.0,1589235929,86.18,RU
519,pak phanang,8.35,81.0,4.99,83.03,100.0,1589235929,100.2,TH
520,lichuan,30.3,94.0,1.19,48.76,17.0,1589235929,108.85,CN
521,maues,-3.38,95.0,2.62,77.86,22.0,1589235795,-57.72,BR
522,louisbourg,,,,,,,,
523,aranda de duero,41.67,83.0,3.83,51.33,19.0,1589235929,-3.69,ES
524,dodge city,37.75,86.0,17.22,41.0,90.0,1589235745,-100.02,US
525,severo-yeniseyskiy,60.37,79.0,3.09,50.65,99.0,1589235665,93.04,RU
526,tynda,55.17,79.0,10.36,34.97,58.0,1589235930,124.72,RU
527,melfi,41.0,72.0,18.34,64.4,5.0,1589235930,15.65,IT
528,ancud,-41.87,76.0,3.36,51.01,97.0,1589235930,-73.82,CL
529,smithers,54.78,25.0,6.93,62.6,5.0,1589235931,-127.17,CA
530,svetlyy,54.67,78.0,17.9,35.6,90.0,1589235931,20.13,RU
531,oudtshoorn,-33.59,87.0,3.36,59.0,64.0,1589235931,22.2,ZA
532,fairview,40.81,71.0,9.17,55.4,40.0,1589235881,-74.0,US
533,havoysund,71.0,96.0,26.4,33.8,100.0,1589235931,24.66,NO
534,inta,66.03,82.0,7.18,47.86,100.0,1589235931,60.17,RU
535,waipawa,-41.41,76.0,5.82,57.2,81.0,1589235891,175.52,NZ
536,mrirt,,,,,,,,
537,urdzhar,,,,,,,,
538,villaviciosa,43.48,88.0,3.0,57.0,100.0,1589235932,-5.44,ES
539,margate,51.38,70.0,8.01,46.99,11.0,1589235672,1.39,GB
540,chihuahua,28.5,12.0,13.87,87.8,75.0,1589235695,-106.0,MX
541,hengyang,26.89,74.0,2.08,62.67,1.0,1589235933,112.61,CN
542,kyshtovka,56.55,43.0,1.39,62.8,16.0,1589235933,76.63,RU
543,lufkin,31.34,28.0,9.17,82.4,1.0,1589235933,-94.73,US
544,marsabit,2.33,98.0,16.78,64.85,91.0,1589235933,37.99,KE
545,belousovka,50.13,61.0,2.64,48.2,40.0,1589235933,82.52,KZ
546,klaksvik,62.23,69.0,12.75,37.4,96.0,1589235934,-6.59,FO
547,leshukonskoye,64.9,96.0,7.4,44.47,67.0,1589235934,45.76,RU
548,miles city,46.41,56.0,12.75,44.6,90.0,1589235934,-105.84,US
549,petersburg,37.23,46.0,10.29,62.01,90.0,1589235934,-77.4,US
550,umm kaddadah,13.6,14.0,12.71,82.87,1.0,1589235934,26.69,SD
551,kieta,-6.22,74.0,5.01,83.8,100.0,1589235934,155.63,PG
552,sao lourenco do sul,-31.37,78.0,1.01,63.0,81.0,1589235935,-51.98,BR
553,danjiangkou,32.54,47.0,9.33,56.77,0.0,1589235935,111.51,CN
554,luau,-10.71,66.0,4.7,63.07,3.0,1589235935,22.22,AO
555,point pleasant,40.08,58.0,1.99,59.0,59.0,1589235667,-74.07,US
556,caraballeda,10.61,52.0,10.11,82.99,37.0,1589235935,-66.85,VE
557,mirnyy,62.54,74.0,2.24,30.2,0.0,1589235936,113.96,RU
558,port-cartier,50.03,60.0,11.41,43.0,20.0,1589235936,-66.87,CA
559,grindavik,63.84,93.0,20.8,41.0,90.0,1589235936,-22.43,IS
560,synya,65.37,88.0,6.2,45.68,92.0,1589235936,58.04,RU
561,ormara,25.21,88.0,9.82,80.89,78.0,1589235936,64.64,PK
562,hammerfest,70.66,98.0,26.4,32.0,100.0,1589235936,23.68,NO
563,neepawa,50.23,22.0,11.32,46.4,5.0,1589235937,-99.47,CA
564,tinskoy,56.15,81.0,4.52,53.76,97.0,1589235937,96.92,RU
565,ulladulla,-35.35,71.0,11.41,50.0,19.0,1589235937,150.47,AU
566,rocha,-34.48,74.0,5.77,51.78,84.0,1589235937,-54.33,UY
567,madina,5.68,83.0,10.29,80.6,20.0,1589235937,-0.16,GH
568,otautau,-46.15,88.0,2.73,45.99,49.0,1589235937,168.0,NZ
569,bukama,-9.2,70.0,2.55,68.41,80.0,1589235938,25.85,CD
570,haines junction,60.75,29.0,3.29,65.97,17.0,1589235938,-137.51,CA
571,morros,-9.45,73.0,5.75,75.81,66.0,1589235938,-46.3,BR
572,louis trichardt,-23.04,51.0,3.29,56.59,0.0,1589235938,29.9,ZA
573,biloela,-24.42,74.0,13.27,59.95,31.0,1589235938,150.5,AU
574,calabozo,8.92,34.0,3.18,94.59,70.0,1589235938,-67.43,VE
575,mouzakion,,,,,,,,
576,sola,-13.88,94.0,13.65,78.8,75.0,1589235939,167.55,VU
577,rio grande,-32.03,78.0,1.01,63.0,99.0,1589235939,-52.1,BR
578,dunedin,-45.87,76.0,2.15,57.0,100.0,1589235939,170.5,NZ
579,horta,38.53,78.0,15.57,61.41,100.0,1589235939,-28.63,PT
580,north platte,41.12,60.0,10.29,42.8,90.0,1589235939,-100.77,US
581,okhotsk,59.38,69.0,9.28,40.08,93.0,1589235940,143.3,RU
582,skibbereen,51.55,72.0,6.93,41.0,20.0,1589235940,-9.27,IE
583,umzimvubu,,,,,,,,
584,maceio,-9.67,88.0,3.36,78.8,40.0,1589235940,-35.74,BR
585,mvuma,-19.28,72.0,5.77,51.87,91.0,1589235940,30.53,ZW
586,ariquemes,-9.91,89.0,1.48,77.97,92.0,1589235941,-63.04,BR
587,kapit,2.02,95.0,1.66,75.56,100.0,1589235941,112.93,MY
588,saryg-sep,51.5,48.0,2.1,49.39,100.0,1589235941,95.6,RU
589,kununurra,-15.77,40.0,8.05,71.6,0.0,1589235941,128.73,AU
590,gazanjyk,39.24,53.0,4.27,63.86,33.0,1589235941,55.52,TM
591,gasa,31.5,88.0,1.12,66.99,20.0,1589235941,34.47,PS
592,wahiawa,21.5,57.0,18.34,82.0,75.0,1589235942,-158.02,US
593,celestun,20.87,68.0,21.07,82.08,4.0,1589235942,-90.4,MX
594,yangjiang,21.85,96.0,4.14,74.71,100.0,1589235942,111.97,CN
595,howard springs,-12.5,49.0,8.05,73.99,96.0,1589235942,131.05,AU
596,cedar city,37.68,22.0,25.28,75.2,1.0,1589235830,-113.06,US
597,manzil salim,35.86,48.0,1.12,66.2,0.0,1589235942,8.48,TN
598,hovd,48.01,37.0,0.81,50.23,90.0,1589235943,91.64,MN
599,makakilo city,21.35,57.0,8.05,82.4,75.0,1589235769,-158.09,US
600,tombouctou,20.0,10.0,7.96,93.34,0.0,1589235943,-3.0,ML
601,dalbandin,28.89,21.0,5.75,85.87,3.0,1589235943,64.41,PK
602,sarangani,5.4,77.0,9.01,84.33,88.0,1589235943,125.46,PH
603,pietersburg,-23.9,58.0,3.36,53.6,0.0,1589235943,29.47,ZA
604,meadow lake,34.8,35.0,8.05,73.4,75.0,1589235944,-106.54,US
605,nam tha,,,,,,,,
606,sibolga,1.74,75.0,3.67,78.44,95.0,1589235944,98.78,ID
